{"businesses": [{"id": "ehUuSk5gPTCQmwS_ubgKRA", "alias": "upstate-craft-beer-and-oyster-bar-new-york-4", "name": "Upstate Craft Beer & Oyster Bar", "image_url": "https://s3-media1.fl.yelpcdn.com/bphoto/RvnUVU7MF7DT0RzNL-EebQ/o.jpg", "is_closed": false, "url": "https://www.yelp.com/biz/upstate-craft-beer-and-oyster-bar-new-york-4?adjust_creative=wFi7K9OZmvTenkmtw_H9Ww&utm_campaign=yelp_api_v3&utm_medium=api_v3_business_search&utm_source=wFi7K9OZmvTenkmtw_H9Ww", "review_count": 1847, "categories": [{"alias": "seafood", "title": "Seafood"}], "rating": 4.5, "coordinates": {"latitude": 40.726373, "longitude": -73.986557}, "transactions": ["restaurant_reservation"], "price": "$$", "location": {"address1": "95 1st Ave", "address2": null, "address3": "", "city": "New York", "zip_code": "10003", "country": "US", "state": "NY", "display_address": ["95 1st Ave", "New York, NY 10003"]}, "phone": "+16467915400", "display_phone": "(646) 791-5400", "distance": 2416.715359115974}, {"id": "ETgJqJHV7BW6pIr9Ox74sA", "alias": "am\u00e9lie-new-york", "name": "Am\u00e9lie", "image_url": "https://s3-media4.fl.yelpcdn.com/bphoto/cSDgVuPMnJgMLTrTNSEXug/o.jpg", "is_closed": false, "url": "https://www.yelp.com/biz/am%C3%A9lie-new-york?adjust_creative=wFi7K9OZmvTenkmtw_H9Ww&utm_campaign=yelp_api_v3&utm_medium=api_v3_business_search&utm_source=wFi7K9OZmvTenkmtw_H9Ww", "review_count": 2658, "categories": [{"alias": "french", "title": "French"}, {"alias": "wine_bars", "title": "Wine Bars"}], "rating": 4.5, "coordinates": {"latitude": 40.7327, "longitude": -73.99766}, "transactions": ["restaurant_reservation"], "price": "$$", "location": {"address1": "22 W 8th St", "address2": "", "address3": "", "city": "New York", "zip_code": "10011", "country": "US", "state": "NY", "display_address": ["22 W 8th St", "New York, NY 10011"]}, "phone": "+12125332962", "display_phone": "(212) 533-2962", "distance": 3038.8699032940094}, {"id": "jjJc_CrkB2HodEinB6cWww", "alias": "lovemama-new-york", "name": "LoveMama", "image_url": "https://s3-media1.fl.yelpcdn.com/bphoto/bLlFKTlVuLfmF-lIDGIjZA/o.jpg", "is_closed": false, "url": "https://www.yelp.com/biz/lovemama-new-york?adjust_creative=wFi7K9OZmvTenkmtw_H9Ww&utm_campaign=yelp_api_v3&utm_medium=api_v3_business_search&utm_source=wFi7K9OZmvTenkmtw_H9Ww", "review_count": 4950, "categories": [{"alias": "thai", "title": "Thai"}, {"alias": "malaysian", "title": "Malaysian"}, {"alias": "vietnamese", "title": "Vietnamese"}], "rating": 4.5, "coordinates": {"latitude": 40.7303859, "longitude": -73.9860613}, "transactions": ["delivery", "pickup", "restaurant_reservation"], "price": "$$", "location": {"address1": "174 2nd Ave", "address2": "", "address3": "", "city": "New York", "zip_code": "10003", "country": "US", "state": "NY", "display_address": ["174 2nd Ave", "New York, NY 10003"]}, "phone": "+12122545370", "display_phone": "(212) 254-5370", "distance": 2858.7729410008346}, {"id": "0IFDnYf3bhqxJR6hVrG7Gw", "alias": "top-thai-vintage-new-york-2", "name": "Top Thai Vintage", "image_url": "https://s3-media3.fl.yelpcdn.com/bphoto/-ZoEVVSfXiLLw8NLKSF9BA/o.jpg", "is_closed": false, "url": "https://www.yelp.com/biz/top-thai-vintage-new-york-2?adjust_creative=wFi7K9OZmvTenkmtw_H9Ww&utm_campaign=yelp_api_v3&utm_medium=api_v3_business_search&utm_source=wFi7K9OZmvTenkmtw_H9Ww", "review_count": 46, "categories": [{"alias": "thai", "title": "Thai"}, {"alias": "halal", "title": "Halal"}, {"alias": "seafood", "title": "Seafood"}], "rating": 5.0, "coordinates": {"latitude": 40.729947, "longitude": -74.004227}, "transactions": ["restaurant_reservation"], "price": "$$", "location": {"address1": "55 Carmine St", "address2": null, "address3": "", "city": "New York", "zip_code": "10014", "country": "US", "state": "NY", "display_address": ["55 Carmine St", "New York, NY 10014"]}, "phone": "+16466092272", "display_phone": "(646) 609-2272", "distance": 2850.6467662416635}, {"id": "B3_K2kUVbYOU0VaLcj_LTw", "alias": "thai-villa-new-york-2", "name": "Thai Villa", "image_url": "https://s3-media1.fl.yelpcdn.com/bphoto/OgCU9NPFIl8hF_04Zani9w/o.jpg", "is_closed": false, "url": "https://www.yelp.com/biz/thai-villa-new-york-2?adjust_creative=wFi7K9OZmvTenkmtw_H9Ww&utm_campaign=yelp_api_v3&utm_medium=api_v3_business_search&utm_source=wFi7K9OZmvTenkmtw_H9Ww", "review_count": 3298, "categories": [{"alias": "thai", "title": "Thai"}, {"alias": "asianfusion", "title": "Asian Fusion"}], "rating": 4.5, "coordinates": {"latitude": 40.73902, "longitude": -73.99065}, "transactions": ["delivery", "pickup"], "price": "$$", "location": {"address1": "5 E 19th St", "address2": "G Floor", "address3": "", "city": "New York", "zip_code": "10003", "country": "US", "state": "NY", "display_address": ["5 E 19th St", "G Floor", "New York, NY 10003"]}, "phone": "+12128029999", "display_phone": "(212) 802-9999", "distance": 3744.570399827637}, {"id": "96svxj2NIOrba2fBMZAqOQ", "alias": "bogota-latin-bistro-brooklyn", "name": "Bogota Latin Bistro", "image_url": "https://s3-media3.fl.yelpcdn.com/bphoto/FgXUCxKbJiHYEWvNvhhZsA/o.jpg", "is_closed": false, "url": "https://www.yelp.com/biz/bogota-latin-bistro-brooklyn?adjust_creative=wFi7K9OZmvTenkmtw_H9Ww&utm_campaign=yelp_api_v3&utm_medium=api_v3_business_search&utm_source=wFi7K9OZmvTenkmtw_H9Ww", "review_count": 2172, "categories": [{"alias": "gluten_free", "title": "Gluten-Free"}, {"alias": "colombian", "title": "Colombian"}], "rating": 4.0, "coordinates": {"latitude": 40.678165, "longitude": -73.978976}, "transactions": ["delivery", "pickup", "restaurant_reservation"], "price": "$$", "location": {"address1": "141 5th Ave", "address2": "", "address3": "", "city": "Brooklyn", "zip_code": "11217", "country": "US", "state": "NY", "display_address": ["141 5th Ave", "Brooklyn, NY 11217"]}, "phone": "+17182303805", "display_phone": "(718) 230-3805", "distance": 3296.8358139717166}, {"id": "xZ96vaoL-cQjfotmUKtjJQ", "alias": "barn-joo-35-new-york", "name": "Barn Joo 35", "image_url": "https://s3-media1.fl.yelpcdn.com/bphoto/1R5CgYlK5qGUhKZOvZThKw/o.jpg", "is_closed": false, "url": "https://www.yelp.com/biz/barn-joo-35-new-york?adjust_creative=wFi7K9OZmvTenkmtw_H9Ww&utm_campaign=yelp_api_v3&utm_medium=api_v3_business_search&utm_source=wFi7K9OZmvTenkmtw_H9Ww", "review_count": 1982, "categories": [{"alias": "korean", "title": "Korean"}, {"alias": "gastropubs", "title": "Gastropubs"}, {"alias": "tapasmallplates", "title": "Tapas/Small Plates"}], "rating": 4.5, "coordinates": {"latitude": 40.74964, "longitude": -73.98582}, "transactions": ["restaurant_reservation", "delivery", "pickup"], "price": "$$", "location": {"address1": "34 W 35th St", "address2": "", "address3": "", "city": "New York", "zip_code": "10001", "country": "US", "state": "NY", "display_address": ["34 W 35th St", "New York, NY 10001"]}, "phone": "+12125644430", "display_phone": "(212) 564-4430", "distance": 4968.473297353009}, {"id": "UA2M9QFZghe-9th2KwLoWQ", "alias": "burger-and-lobster-new-york-4", "name": "Burger & Lobster", "image_url": "https://s3-media3.fl.yelpcdn.com/bphoto/1rHd7F4zztAsScwzM0vDmw/o.jpg", "is_closed": false, "url": "https://www.yelp.com/biz/burger-and-lobster-new-york-4?adjust_creative=wFi7K9OZmvTenkmtw_H9Ww&utm_campaign=yelp_api_v3&utm_medium=api_v3_business_search&utm_source=wFi7K9OZmvTenkmtw_H9Ww", "review_count": 5426, "categories": [{"alias": "seafood", "title": "Seafood"}, {"alias": "burgers", "title": "Burgers"}, {"alias": "newamerican", "title": "American (New)"}], "rating": 4.0, "coordinates": {"latitude": 40.74007, "longitude": -73.99344}, "transactions": ["restaurant_reservation", "delivery", "pickup"], "price": "$$", "location": {"address1": "39 W 19th St", "address2": "", "address3": "", "city": "New York", "zip_code": "10011", "country": "US", "state": "NY", "display_address": ["39 W 19th St", "New York, NY 10011"]}, "phone": "+16468337532", "display_phone": "(646) 833-7532", "distance": 3849.54386751767}, {"id": "qm1J_dPA5IHij1oAnoZwHw", "alias": "nonono-new-york-6", "name": "nonono", "image_url": "https://s3-media4.fl.yelpcdn.com/bphoto/yhZYzx5cnn8SFFF8eZdRHw/o.jpg", "is_closed": false, "url": "https://www.yelp.com/biz/nonono-new-york-6?adjust_creative=wFi7K9OZmvTenkmtw_H9Ww&utm_campaign=yelp_api_v3&utm_medium=api_v3_business_search&utm_source=wFi7K9OZmvTenkmtw_H9Ww", "review_count": 696, "categories": [{"alias": "tapasmallplates", "title": "Tapas/Small Plates"}, {"alias": "izakaya", "title": "Izakaya"}, {"alias": "ramen", "title": "Ramen"}], "rating": 4.5, "coordinates": {"latitude": 40.74545, "longitude": -73.98499}, "transactions": ["restaurant_reservation", "delivery", "pickup"], "price": "$$", "location": {"address1": "118 Madison Ave", "address2": "", "address3": "", "city": "New York", "zip_code": "10016", "country": "US", "state": "NY", "display_address": ["118 Madison Ave", "New York, NY 10016"]}, "phone": "+16467073227", "display_phone": "(646) 707-3227", "distance": 4515.897681612123}, {"id": "dkAj-3gmkvdA4XkJmw6hCw", "alias": "juanchis-burger-brooklyn", "name": "Juanchi's Burger", "image_url": "https://s3-media4.fl.yelpcdn.com/bphoto/ZgbWUBZhsVm5RrrprkmAfQ/o.jpg", "is_closed": false, "url": "https://www.yelp.com/biz/juanchis-burger-brooklyn?adjust_creative=wFi7K9OZmvTenkmtw_H9Ww&utm_campaign=yelp_api_v3&utm_medium=api_v3_business_search&utm_source=wFi7K9OZmvTenkmtw_H9Ww", "review_count": 429, "categories": [{"alias": "gastropubs", "title": "Gastropubs"}, {"alias": "burgers", "title": "Burgers"}], "rating": 4.5, "coordinates": {"latitude": 40.713003, "longitude": -73.958863}, "transactions": ["restaurant_reservation", "delivery", "pickup"], "price": "$$", "location": {"address1": "225 S 1st St", "address2": null, "address3": "", "city": "Brooklyn", "zip_code": "11211", "country": "US", "state": "NY", "display_address": ["225 S 1st St", "Brooklyn, NY 11211"]}, "phone": "+19292950147", "display_phone": "(929) 295-0147", "distance": 3102.797689822998}, {"id": "-udRA8VRsQJoIaT-kxCrGg", "alias": "ipanema-restaurant-new-york", "name": "Ipanema Restaurant", "image_url": "https://s3-media4.fl.yelpcdn.com/bphoto/p7A065ZhtvsgsnVEaOfMuQ/o.jpg", "is_closed": false, "url": "https://www.yelp.com/biz/ipanema-restaurant-new-york?adjust_creative=wFi7K9OZmvTenkmtw_H9Ww&utm_campaign=yelp_api_v3&utm_medium=api_v3_business_search&utm_source=wFi7K9OZmvTenkmtw_H9Ww", "review_count": 1374, "categories": [{"alias": "brazilian", "title": "Brazilian"}, {"alias": "portuguese", "title": "Portuguese"}, {"alias": "steak", "title": "Steakhouses"}], "rating": 4.0, "coordinates": {"latitude": 40.757072217349, "longitude": -73.9807795529175}, "transactions": ["restaurant_reservation", "pickup"], "price": "$$", "location": {"address1": "43 W 46th St", "address2": null, "address3": "", "city": "New York", "zip_code": "10036", "country": "US", "state": "NY", "display_address": ["43 W 46th St", "New York, NY 10036"]}, "phone": "+12127305848", "display_phone": "(212) 730-5848", "distance": 5852.5328132075565}, {"id": "ysqgdbSrezXgVwER2kQWKA", "alias": "julianas-pizza-brooklyn-5", "name": "Juliana's Pizza", "image_url": "https://s3-media2.fl.yelpcdn.com/bphoto/clscwgOF9_Ecq-Rwsq7jyQ/o.jpg", "is_closed": false, "url": "https://www.yelp.com/biz/julianas-pizza-brooklyn-5?adjust_creative=wFi7K9OZmvTenkmtw_H9Ww&utm_campaign=yelp_api_v3&utm_medium=api_v3_business_search&utm_source=wFi7K9OZmvTenkmtw_H9Ww", "review_count": 2165, "categories": [{"alias": "pizza", "title": "Pizza"}], "rating": 4.5, "coordinates": {"latitude": 40.7026153030093, "longitude": -73.9934159993549}, "transactions": [], "price": "$$", "location": {"address1": "19 Old Fulton St", "address2": "", "address3": "", "city": "Brooklyn", "zip_code": "11201", "country": "US", "state": "NY", "display_address": ["19 Old Fulton St", "Brooklyn, NY 11201"]}, "phone": "+17185966700", "display_phone": "(718) 596-6700", "distance": 323.20506308227306}, {"id": "OCTiJwvjoK81WoDwsTkFvA", "alias": "paesano-of-mulberry-street-new-york", "name": "Paesano of Mulberry Street", "image_url": "https://s3-media2.fl.yelpcdn.com/bphoto/yN9ARCE3LF6u9E0yN5WpIw/o.jpg", "is_closed": false, "url": "https://www.yelp.com/biz/paesano-of-mulberry-street-new-york?adjust_creative=wFi7K9OZmvTenkmtw_H9Ww&utm_campaign=yelp_api_v3&utm_medium=api_v3_business_search&utm_source=wFi7K9OZmvTenkmtw_H9Ww", "review_count": 910, "categories": [{"alias": "italian", "title": "Italian"}, {"alias": "salad", "title": "Salad"}, {"alias": "seafood", "title": "Seafood"}], "rating": 4.0, "coordinates": {"latitude": 40.718554, "longitude": -73.997447}, "transactions": ["restaurant_reservation", "pickup"], "price": "$$", "location": {"address1": "136 Mulberry St", "address2": "", "address3": "", "city": "New York", "zip_code": "10013", "country": "US", "state": "NY", "display_address": ["136 Mulberry St", "New York, NY 10013"]}, "phone": "+12129651188", "display_phone": "(212) 965-1188", "distance": 1481.7066528289554}, {"id": "h77VtGL7BCXvAALx-ZFbVA", "alias": "medusa-greek-taverna-brooklyn-2", "name": "Medusa Greek Taverna", "image_url": "https://s3-media2.fl.yelpcdn.com/bphoto/ZEHFcSrwEphL1J8oEAbtpg/o.jpg", "is_closed": false, "url": "https://www.yelp.com/biz/medusa-greek-taverna-brooklyn-2?adjust_creative=wFi7K9OZmvTenkmtw_H9Ww&utm_campaign=yelp_api_v3&utm_medium=api_v3_business_search&utm_source=wFi7K9OZmvTenkmtw_H9Ww", "review_count": 25, "categories": [{"alias": "greek", "title": "Greek"}], "rating": 4.5, "coordinates": {"latitude": 40.67857, "longitude": -73.97885}, "transactions": ["restaurant_reservation", "delivery", "pickup"], "location": {"address1": "133 5th Ave", "address2": "", "address3": null, "city": "Brooklyn", "zip_code": "11217", "country": "US", "state": "NY", "display_address": ["133 5th Ave", "Brooklyn, NY 11217"]}, "phone": "+13475990749", "display_phone": "(347) 599-0749", "distance": 3267.5991140098376}, {"id": "q11TljTQd33XCWlVoPyRqg", "alias": "the-osprey-brooklyn", "name": "The Osprey", "image_url": "https://s3-media4.fl.yelpcdn.com/bphoto/2WwMWz2pOA0oHqIkz08shA/o.jpg", "is_closed": false, "url": "https://www.yelp.com/biz/the-osprey-brooklyn?adjust_creative=wFi7K9OZmvTenkmtw_H9Ww&utm_campaign=yelp_api_v3&utm_medium=api_v3_business_search&utm_source=wFi7K9OZmvTenkmtw_H9Ww", "review_count": 197, "categories": [{"alias": "newamerican", "title": "American (New)"}], "rating": 4.0, "coordinates": {"latitude": 40.702241, "longitude": -73.995539}, "transactions": [], "price": "$$", "location": {"address1": "60 Furman St", "address2": "", "address3": null, "city": "Brooklyn", "zip_code": "11201", "country": "US", "state": "NY", "display_address": ["60 Furman St", "Brooklyn, NY 11201"]}, "phone": "+13476962505", "display_phone": "(347) 696-2505", "distance": 367.7475436977597}, {"id": "XipQLDbyTl5tsLlyzAWzug", "alias": "jajaja-new-york", "name": "Jajaja", "image_url": "https://s3-media1.fl.yelpcdn.com/bphoto/6HT76TsvGr6XtRVzBi4S_g/o.jpg", "is_closed": false, "url": "https://www.yelp.com/biz/jajaja-new-york?adjust_creative=wFi7K9OZmvTenkmtw_H9Ww&utm_campaign=yelp_api_v3&utm_medium=api_v3_business_search&utm_source=wFi7K9OZmvTenkmtw_H9Ww", "review_count": 916, "categories": [{"alias": "mexican", "title": "Mexican"}, {"alias": "vegan", "title": "Vegan"}, {"alias": "bars", "title": "Bars"}], "rating": 4.5, "coordinates": {"latitude": 40.7141530317142, "longitude": -73.9904247969389}, "transactions": ["restaurant_reservation", "delivery", "pickup"], "price": "$$", "location": {"address1": "162 E Broadway", "address2": "", "address3": null, "city": "New York", "zip_code": "10002", "country": "US", "state": "NY", "display_address": ["162 E Broadway", "New York, NY 10002"]}, "phone": "+16468835453", "display_phone": "(646) 883-5453", "distance": 1021.7274074140097}, {"id": "xt4sa64WOrpJvZBDPNPNYg", "alias": "jacobs-pickles-new-york", "name": "Jacob's Pickles", "image_url": "https://s3-media2.fl.yelpcdn.com/bphoto/167Rl2s1oMge_2ZSDD1z0A/o.jpg", "is_closed": false, "url": "https://www.yelp.com/biz/jacobs-pickles-new-york?adjust_creative=wFi7K9OZmvTenkmtw_H9Ww&utm_campaign=yelp_api_v3&utm_medium=api_v3_business_search&utm_source=wFi7K9OZmvTenkmtw_H9Ww", "review_count": 4091, "categories": [{"alias": "comfortfood", "title": "Comfort Food"}, {"alias": "southern", "title": "Southern"}, {"alias": "tradamerican", "title": "American (Traditional)"}], "rating": 4.0, "coordinates": {"latitude": 40.7866504411994, "longitude": -73.9755284786224}, "transactions": [], "price": "$$", "location": {"address1": "509 Amsterdam Ave", "address2": "", "address3": "", "city": "New York", "zip_code": "10024", "country": "US", "state": "NY", "display_address": ["509 Amsterdam Ave", "New York, NY 10024"]}, "phone": "+12124705566", "display_phone": "(212) 470-5566", "distance": 9166.964737863183}, {"id": "s3jou_L_LVYGkNHiuhjlew", "alias": "boucherie-west-village-new-york-3", "name": "Boucherie West Village", "image_url": "https://s3-media2.fl.yelpcdn.com/bphoto/-5TXMVrjARsqKQHDg-hKbQ/o.jpg", "is_closed": false, "url": "https://www.yelp.com/biz/boucherie-west-village-new-york-3?adjust_creative=wFi7K9OZmvTenkmtw_H9Ww&utm_campaign=yelp_api_v3&utm_medium=api_v3_business_search&utm_source=wFi7K9OZmvTenkmtw_H9Ww", "review_count": 1410, "categories": [{"alias": "french", "title": "French"}, {"alias": "cocktailbars", "title": "Cocktail Bars"}, {"alias": "steak", "title": "Steakhouses"}], "rating": 4.5, "coordinates": {"latitude": 40.733063, "longitude": -74.0028772}, "transactions": ["delivery", "pickup", "restaurant_reservation"], "price": "$$$", "location": {"address1": "99 7th Ave S", "address2": "", "address3": null, "city": "New York", "zip_code": "10014", "country": "US", "state": "NY", "display_address": ["99 7th Ave S", "New York, NY 10014"]}, "phone": "+12128371616", "display_phone": "(212) 837-1616", "distance": 3155.0505772747442}, {"id": "0CjK3esfpFcxIopebzjFxA", "alias": "joes-shanghai-new-york-2", "name": "Joe's Shanghai", "image_url": "https://s3-media3.fl.yelpcdn.com/bphoto/ekUo5egd4dlE7zJyb4-Leg/o.jpg", "is_closed": false, "url": "https://www.yelp.com/biz/joes-shanghai-new-york-2?adjust_creative=wFi7K9OZmvTenkmtw_H9Ww&utm_campaign=yelp_api_v3&utm_medium=api_v3_business_search&utm_source=wFi7K9OZmvTenkmtw_H9Ww", "review_count": 6123, "categories": [{"alias": "shanghainese", "title": "Shanghainese"}, {"alias": "seafood", "title": "Seafood"}, {"alias": "noodles", "title": "Noodles"}], "rating": 4.0, "coordinates": {"latitude": 40.7156608, "longitude": -73.9967012}, "transactions": [], "price": "$$", "location": {"address1": "46 Bowery St", "address2": "", "address3": "", "city": "New York", "zip_code": "10013", "country": "US", "state": "NY", "display_address": ["46 Bowery St", "New York, NY 10013"]}, "phone": "+12122338888", "display_phone": "(212) 233-8888", "distance": 1153.9482385806896}, {"id": "CwOAKJdX8AMz5iAoA-ZEuA", "alias": "uglyduckling-brooklyn", "name": "Uglyduckling", "image_url": "https://s3-media3.fl.yelpcdn.com/bphoto/sCDU8uosDuxp26wjxq4p4g/o.jpg", "is_closed": false, "url": "https://www.yelp.com/biz/uglyduckling-brooklyn?adjust_creative=wFi7K9OZmvTenkmtw_H9Ww&utm_campaign=yelp_api_v3&utm_medium=api_v3_business_search&utm_source=wFi7K9OZmvTenkmtw_H9Ww", "review_count": 472, "categories": [{"alias": "tradamerican", "title": "American (Traditional)"}, {"alias": "gastropubs", "title": "Gastropubs"}], "rating": 4.0, "coordinates": {"latitude": 40.686023, "longitude": -73.991302}, "transactions": ["delivery", "pickup", "restaurant_reservation"], "price": "$$", "location": {"address1": "166 Smith St", "address2": "", "address3": "", "city": "Brooklyn", "zip_code": "11201", "country": "US", "state": "NY", "display_address": ["166 Smith St", "Brooklyn, NY 11201"]}, "phone": "+17184513825", "display_phone": "(718) 451-3825", "distance": 2174.2838817065267}, {"id": "m1cJLpDN4B-_0hGgPfe5OA", "alias": "salt-charcoal-brooklyn", "name": "Salt + Charcoal", "image_url": "https://s3-media3.fl.yelpcdn.com/bphoto/RDtbfJjYqtdpaKvTrRhh2A/o.jpg", "is_closed": false, "url": "https://www.yelp.com/biz/salt-charcoal-brooklyn?adjust_creative=wFi7K9OZmvTenkmtw_H9Ww&utm_campaign=yelp_api_v3&utm_medium=api_v3_business_search&utm_source=wFi7K9OZmvTenkmtw_H9Ww", "review_count": 462, "categories": [{"alias": "japanese", "title": "Japanese"}, {"alias": "asianfusion", "title": "Asian Fusion"}, {"alias": "steak", "title": "Steakhouses"}], "rating": 4.0, "coordinates": {"latitude": 40.71453, "longitude": -73.9613511}, "transactions": ["delivery", "pickup", "restaurant_reservation"], "price": "$$", "location": {"address1": "171 Grand St", "address2": "", "address3": "", "city": "Brooklyn", "zip_code": "11249", "country": "US", "state": "NY", "display_address": ["171 Grand St", "Brooklyn, NY 11249"]}, "phone": "+17187822087", "display_phone": "(718) 782-2087", "distance": 2954.688075109069}, {"id": "VvsZAnEwU4c8Xkyrzx05Nw", "alias": "anytime-new-york", "name": "Anytime", "image_url": "https://s3-media3.fl.yelpcdn.com/bphoto/S-K4D44wXoqw-wTL4kX2cQ/o.jpg", "is_closed": false, "url": "https://www.yelp.com/biz/anytime-new-york?adjust_creative=wFi7K9OZmvTenkmtw_H9Ww&utm_campaign=yelp_api_v3&utm_medium=api_v3_business_search&utm_source=wFi7K9OZmvTenkmtw_H9Ww", "review_count": 1334, "categories": [{"alias": "korean", "title": "Korean"}, {"alias": "newamerican", "title": "American (New)"}, {"alias": "tapasmallplates", "title": "Tapas/Small Plates"}], "rating": 4.5, "coordinates": {"latitude": 40.74779, "longitude": -73.98674}, "transactions": ["restaurant_reservation"], "price": "$$", "location": {"address1": "23 W 32nd St", "address2": "Fl 3", "address3": "", "city": "New York", "zip_code": "10001", "country": "US", "state": "NY", "display_address": ["23 W 32nd St", "Fl 3", "New York, NY 10001"]}, "phone": "+16466697733", "display_phone": "(646) 669-7733", "distance": 4761.966725883583}, {"id": "nxTEuWKzkK1tCF4LrhFSUQ", "alias": "pig-and-khao-new-york", "name": "Pig and Khao", "image_url": "https://s3-media2.fl.yelpcdn.com/bphoto/bV_sHIsR3MFmclD63AmwKA/o.jpg", "is_closed": false, "url": "https://www.yelp.com/biz/pig-and-khao-new-york?adjust_creative=wFi7K9OZmvTenkmtw_H9Ww&utm_campaign=yelp_api_v3&utm_medium=api_v3_business_search&utm_source=wFi7K9OZmvTenkmtw_H9Ww", "review_count": 1635, "categories": [{"alias": "filipino", "title": "Filipino"}, {"alias": "thai", "title": "Thai"}, {"alias": "asianfusion", "title": "Asian Fusion"}], "rating": 4.0, "coordinates": {"latitude": 40.71926, "longitude": -73.98475}, "transactions": [], "price": "$$", "location": {"address1": "68 Clinton St", "address2": "", "address3": "", "city": "New York", "zip_code": "10002", "country": "US", "state": "NY", "display_address": ["68 Clinton St", "New York, NY 10002"]}, "phone": "+12129204485", "display_phone": "(212) 920-4485", "distance": 1733.0778315167283}, {"id": "MphfKkYFEe0BDQ6hZ0A5fA", "alias": "gelso-and-grand-new-york", "name": "Gelso & Grand", "image_url": "https://s3-media2.fl.yelpcdn.com/bphoto/HuHFQ0vaGnMsBu_5QcprXA/o.jpg", "is_closed": false, "url": "https://www.yelp.com/biz/gelso-and-grand-new-york?adjust_creative=wFi7K9OZmvTenkmtw_H9Ww&utm_campaign=yelp_api_v3&utm_medium=api_v3_business_search&utm_source=wFi7K9OZmvTenkmtw_H9Ww", "review_count": 896, "categories": [{"alias": "italian", "title": "Italian"}, {"alias": "pastashops", "title": "Pasta Shops"}, {"alias": "pizza", "title": "Pizza"}], "rating": 4.5, "coordinates": {"latitude": 40.7194089547259, "longitude": -73.9973777877722}, "transactions": ["delivery", "pickup", "restaurant_reservation"], "price": "$$", "location": {"address1": "186 Grand St", "address2": "", "address3": "", "city": "New York", "zip_code": "10013", "country": "US", "state": "NY", "display_address": ["186 Grand St", "New York, NY 10013"]}, "phone": "+12122261600", "display_phone": "(212) 226-1600", "distance": 1574.3490321455226}, {"id": "I2lgw_7DUnwD92ND4PN-Ow", "alias": "aunt-jakes-new-york", "name": "Aunt Jake's", "image_url": "https://s3-media2.fl.yelpcdn.com/bphoto/hMhn_lnES3QWc4Gtihvr0A/o.jpg", "is_closed": false, "url": "https://www.yelp.com/biz/aunt-jakes-new-york?adjust_creative=wFi7K9OZmvTenkmtw_H9Ww&utm_campaign=yelp_api_v3&utm_medium=api_v3_business_search&utm_source=wFi7K9OZmvTenkmtw_H9Ww", "review_count": 1451, "categories": [{"alias": "italian", "title": "Italian"}, {"alias": "wine_bars", "title": "Wine Bars"}, {"alias": "pastashops", "title": "Pasta Shops"}], "rating": 4.0, "coordinates": {"latitude": 40.7186467, "longitude": -73.9979241}, "transactions": ["delivery", "pickup", "restaurant_reservation"], "price": "$$", "location": {"address1": "133 Mulberry St", "address2": null, "address3": "", "city": "New York", "zip_code": "10013", "country": "US", "state": "NY", "display_address": ["133 Mulberry St", "New York, NY 10013"]}, "phone": "+16468580470", "display_phone": "(646) 858-0470", "distance": 1499.535533956955}, {"id": "DDb_WRz8jPPHrTt5Fiu0og", "alias": "the-hive-brooklyn-2", "name": "The Hive", "image_url": "https://s3-media4.fl.yelpcdn.com/bphoto/jmQdpkQwh-oK5xogUed7lw/o.jpg", "is_closed": false, "url": "https://www.yelp.com/biz/the-hive-brooklyn-2?adjust_creative=wFi7K9OZmvTenkmtw_H9Ww&utm_campaign=yelp_api_v3&utm_medium=api_v3_business_search&utm_source=wFi7K9OZmvTenkmtw_H9Ww", "review_count": 211, "categories": [{"alias": "gastropubs", "title": "Gastropubs"}, {"alias": "breakfast_brunch", "title": "Breakfast & Brunch"}, {"alias": "tradamerican", "title": "American (Traditional)"}], "rating": 4.0, "coordinates": {"latitude": 40.7201725641173, "longitude": -73.9617135105149}, "transactions": ["restaurant_reservation", "delivery", "pickup"], "price": "$$", "location": {"address1": "119 Kent Ave", "address2": "", "address3": null, "city": "Brooklyn", "zip_code": "11249", "country": "US", "state": "NY", "display_address": ["119 Kent Ave", "Brooklyn, NY 11249"]}, "phone": "+19293376409", "display_phone": "(929) 337-6409", "distance": 3197.213491906248}, {"id": "-OixbLnFLCzQclxCSbUQ8w", "alias": "up-thai-new-york", "name": "Up Thai", "image_url": "https://s3-media3.fl.yelpcdn.com/bphoto/g9J3naudQZY72qJAHUOI8A/o.jpg", "is_closed": false, "url": "https://www.yelp.com/biz/up-thai-new-york?adjust_creative=wFi7K9OZmvTenkmtw_H9Ww&utm_campaign=yelp_api_v3&utm_medium=api_v3_business_search&utm_source=wFi7K9OZmvTenkmtw_H9Ww", "review_count": 2233, "categories": [{"alias": "thai", "title": "Thai"}, {"alias": "asianfusion", "title": "Asian Fusion"}], "rating": 4.5, "coordinates": {"latitude": 40.7698275926665, "longitude": -73.9576330868512}, "transactions": ["delivery", "pickup"], "price": "$$", "location": {"address1": "1411 2nd Ave", "address2": "", "address3": "", "city": "New York", "zip_code": "10021", "country": "US", "state": "NY", "display_address": ["1411 2nd Ave", "New York, NY 10021"]}, "phone": "+12122561188", "display_phone": "(212) 256-1188", "distance": 7796.9126757590075}, {"id": "OFfZUS-nu6NDnsWe1B2bUQ", "alias": "tonchin-new-york-new-york", "name": "TONCHIN NEW YORK", "image_url": "https://s3-media1.fl.yelpcdn.com/bphoto/EA5igkg5gxqHxDcM4YA6hA/o.jpg", "is_closed": false, "url": "https://www.yelp.com/biz/tonchin-new-york-new-york?adjust_creative=wFi7K9OZmvTenkmtw_H9Ww&utm_campaign=yelp_api_v3&utm_medium=api_v3_business_search&utm_source=wFi7K9OZmvTenkmtw_H9Ww", "review_count": 1146, "categories": [{"alias": "ramen", "title": "Ramen"}, {"alias": "izakaya", "title": "Izakaya"}], "rating": 4.5, "coordinates": {"latitude": 40.7502727, "longitude": -73.9844951}, "transactions": ["restaurant_reservation"], "price": "$$", "location": {"address1": "13 W 36th St", "address2": null, "address3": "", "city": "New York", "zip_code": "10018", "country": "US", "state": "NY", "display_address": ["13 W 36th St", "New York, NY 10018"]}, "phone": "+16466929912", "display_phone": "(646) 692-9912", "distance": 5052.538311265594}, {"id": "ax4INkzwL__-d_kGJfcA-w", "alias": "kaikagetsu-nyc-new-york-2", "name": "Kaikagetsu NYC", "image_url": "https://s3-media4.fl.yelpcdn.com/bphoto/m_ARAOwDgHTjn3WkmwkolA/o.jpg", "is_closed": false, "url": "https://www.yelp.com/biz/kaikagetsu-nyc-new-york-2?adjust_creative=wFi7K9OZmvTenkmtw_H9Ww&utm_campaign=yelp_api_v3&utm_medium=api_v3_business_search&utm_source=wFi7K9OZmvTenkmtw_H9Ww", "review_count": 62, "categories": [{"alias": "japanese", "title": "Japanese"}], "rating": 4.5, "coordinates": {"latitude": 40.72104, "longitude": -73.98848}, "transactions": ["restaurant_reservation"], "location": {"address1": "162 Orchard St", "address2": "", "address3": null, "city": "New York", "zip_code": "10002", "country": "US", "state": "NY", "display_address": ["162 Orchard St", "New York, NY 10002"]}, "phone": "+16465903900", "display_phone": "(646) 590-3900", "distance": 1800.6650070425846}, {"id": "WG639VkTjmK5dzydd1BBJA", "alias": "rubirosa-new-york-2", "name": "Rubirosa", "image_url": "https://s3-media4.fl.yelpcdn.com/bphoto/LuSzR8cpVQRofXOT_bMi1A/o.jpg", "is_closed": false, "url": "https://www.yelp.com/biz/rubirosa-new-york-2?adjust_creative=wFi7K9OZmvTenkmtw_H9Ww&utm_campaign=yelp_api_v3&utm_medium=api_v3_business_search&utm_source=wFi7K9OZmvTenkmtw_H9Ww", "review_count": 2194, "categories": [{"alias": "italian", "title": "Italian"}, {"alias": "pizza", "title": "Pizza"}], "rating": 4.5, "coordinates": {"latitude": 40.72275, "longitude": -73.99622}, "transactions": [], "price": "$$", "location": {"address1": "235 Mulberry St", "address2": "", "address3": "", "city": "New York", "zip_code": "10012", "country": "US", "state": "NY", "display_address": ["235 Mulberry St", "New York, NY 10012"]}, "phone": "+12129650500", "display_phone": "(212) 965-0500", "distance": 1931.2683716470422}, {"id": "FlZ1zdVEKWv7dwqm8Uw8-w", "alias": "raku-new-york-7", "name": "Raku", "image_url": "https://s3-media4.fl.yelpcdn.com/bphoto/GEbZnH1jR4n7D5WOJ3urPg/o.jpg", "is_closed": false, "url": "https://www.yelp.com/biz/raku-new-york-7?adjust_creative=wFi7K9OZmvTenkmtw_H9Ww&utm_campaign=yelp_api_v3&utm_medium=api_v3_business_search&utm_source=wFi7K9OZmvTenkmtw_H9Ww", "review_count": 1062, "categories": [{"alias": "japanese", "title": "Japanese"}, {"alias": "noodles", "title": "Noodles"}], "rating": 4.5, "coordinates": {"latitude": 40.7264988089246, "longitude": -73.9866526052356}, "transactions": ["delivery", "pickup"], "price": "$$", "location": {"address1": "342 E 6th St", "address2": "", "address3": "", "city": "New York", "zip_code": "10003", "country": "US", "state": "NY", "display_address": ["342 E 6th St", "New York, NY 10003"]}, "phone": "+12122281324", "display_phone": "(212) 228-1324", "distance": 2428.0392489129867}, {"id": "FizBsTIAJwNrImIG1mPDcg", "alias": "barn-joo-new-york-3", "name": "Barn Joo", "image_url": "https://s3-media2.fl.yelpcdn.com/bphoto/sQo30xQ5Blz5Z1ADmz9y5w/o.jpg", "is_closed": false, "url": "https://www.yelp.com/biz/barn-joo-new-york-3?adjust_creative=wFi7K9OZmvTenkmtw_H9Ww&utm_campaign=yelp_api_v3&utm_medium=api_v3_business_search&utm_source=wFi7K9OZmvTenkmtw_H9Ww", "review_count": 1607, "categories": [{"alias": "korean", "title": "Korean"}, {"alias": "bbq", "title": "Barbeque"}, {"alias": "cocktailbars", "title": "Cocktail Bars"}], "rating": 4.0, "coordinates": {"latitude": 40.73684, "longitude": -73.99069}, "transactions": ["delivery", "pickup", "restaurant_reservation"], "price": "$$", "location": {"address1": "35 Union Sq W", "address2": "", "address3": null, "city": "New York", "zip_code": "10003", "country": "US", "state": "NY", "display_address": ["35 Union Sq W", "New York, NY 10003"]}, "phone": "+16463989663", "display_phone": "(646) 398-9663", "distance": 3509.0010091108297}, {"id": "hmdm-dO72hLsMQwQRcGEUQ", "alias": "atrium-dumbo-brooklyn", "name": "Atrium Dumbo", "image_url": "https://s3-media3.fl.yelpcdn.com/bphoto/TAog5s7slOJ0778OGRzuWQ/o.jpg", "is_closed": false, "url": "https://www.yelp.com/biz/atrium-dumbo-brooklyn?adjust_creative=wFi7K9OZmvTenkmtw_H9Ww&utm_campaign=yelp_api_v3&utm_medium=api_v3_business_search&utm_source=wFi7K9OZmvTenkmtw_H9Ww", "review_count": 665, "categories": [{"alias": "newamerican", "title": "American (New)"}, {"alias": "french", "title": "French"}], "rating": 3.5, "coordinates": {"latitude": 40.7033899, "longitude": -73.9904923}, "transactions": [], "price": "$$", "location": {"address1": "15 Main St", "address2": "", "address3": "", "city": "Brooklyn", "zip_code": "11201", "country": "US", "state": "NY", "display_address": ["15 Main St", "Brooklyn, NY 11201"]}, "phone": "+17188581095", "display_phone": "(718) 858-1095", "distance": 392.6441573431464}, {"id": "oOsJn3leUnWDfErRWMf81g", "alias": "soco-brooklyn", "name": "Soco", "image_url": "https://s3-media3.fl.yelpcdn.com/bphoto/MQqWdJcIgIgtSI3UiVHS6A/o.jpg", "is_closed": false, "url": "https://www.yelp.com/biz/soco-brooklyn?adjust_creative=wFi7K9OZmvTenkmtw_H9Ww&utm_campaign=yelp_api_v3&utm_medium=api_v3_business_search&utm_source=wFi7K9OZmvTenkmtw_H9Ww", "review_count": 2120, "categories": [{"alias": "cajun", "title": "Cajun/Creole"}, {"alias": "bbq", "title": "Barbeque"}, {"alias": "soulfood", "title": "Soul Food"}], "rating": 4.0, "coordinates": {"latitude": 40.693866, "longitude": -73.964535}, "transactions": ["pickup"], "price": "$$", "location": {"address1": "509 Myrtle Ave", "address2": "", "address3": "", "city": "Brooklyn", "zip_code": "11205", "country": "US", "state": "NY", "display_address": ["509 Myrtle Ave", "Brooklyn, NY 11205"]}, "phone": "+17187831936", "display_phone": "(718) 783-1936", "distance": 2819.7510824567576}, {"id": "Swjm9no7DRqhThLlf0EHng", "alias": "sama-street-brooklyn-2", "name": "Sama Street", "image_url": "https://s3-media4.fl.yelpcdn.com/bphoto/Wnt1jze0GPtu3hY5k9qqfA/o.jpg", "is_closed": false, "url": "https://www.yelp.com/biz/sama-street-brooklyn-2?adjust_creative=wFi7K9OZmvTenkmtw_H9Ww&utm_campaign=yelp_api_v3&utm_medium=api_v3_business_search&utm_source=wFi7K9OZmvTenkmtw_H9Ww", "review_count": 90, "categories": [{"alias": "cocktailbars", "title": "Cocktail Bars"}, {"alias": "panasian", "title": "Pan Asian"}, {"alias": "tapasmallplates", "title": "Tapas/Small Plates"}], "rating": 5.0, "coordinates": {"latitude": 40.73287, "longitude": -73.95448}, "transactions": ["restaurant_reservation"], "price": "$$", "location": {"address1": "988 Manhattan Ave", "address2": null, "address3": "", "city": "Brooklyn", "zip_code": "11222", "country": "US", "state": "NY", "display_address": ["988 Manhattan Ave", "Brooklyn, NY 11222"]}, "phone": "+19292763140", "display_phone": "(929) 276-3140", "distance": 4532.886416314846}, {"id": "16ZnHpuaaBt92XWeJHCC5A", "alias": "olio-e-pi\u00fa-new-york-5", "name": "Olio e Pi\u00fa", "image_url": "https://s3-media2.fl.yelpcdn.com/bphoto/l4peUZMi7CLFcG3w3jnYvQ/o.jpg", "is_closed": false, "url": "https://www.yelp.com/biz/olio-e-pi%C3%BA-new-york-5?adjust_creative=wFi7K9OZmvTenkmtw_H9Ww&utm_campaign=yelp_api_v3&utm_medium=api_v3_business_search&utm_source=wFi7K9OZmvTenkmtw_H9Ww", "review_count": 2147, "categories": [{"alias": "pizza", "title": "Pizza"}, {"alias": "italian", "title": "Italian"}, {"alias": "breakfast_brunch", "title": "Breakfast & Brunch"}], "rating": 4.0, "coordinates": {"latitude": 40.733826, "longitude": -73.999852}, "transactions": ["restaurant_reservation", "delivery", "pickup"], "price": "$$", "location": {"address1": "3 Greenwich Ave", "address2": null, "address3": "", "city": "New York", "zip_code": "10014", "country": "US", "state": "NY", "display_address": ["3 Greenwich Ave", "New York, NY 10014"]}, "phone": "+12122436546", "display_phone": "(212) 243-6546", "distance": 3190.416616025005}, {"id": "cTE0e96GYzet799EJeStoQ", "alias": "chama-mama-new-york", "name": "Chama Mama", "image_url": "https://s3-media3.fl.yelpcdn.com/bphoto/-2SUfmtUJ28KBZAo7PvShQ/o.jpg", "is_closed": false, "url": "https://www.yelp.com/biz/chama-mama-new-york?adjust_creative=wFi7K9OZmvTenkmtw_H9Ww&utm_campaign=yelp_api_v3&utm_medium=api_v3_business_search&utm_source=wFi7K9OZmvTenkmtw_H9Ww", "review_count": 234, "categories": [{"alias": "georgian", "title": "Georgian"}], "rating": 4.5, "coordinates": {"latitude": 40.7384, "longitude": -73.99892}, "transactions": ["restaurant_reservation", "delivery", "pickup"], "price": "$$", "location": {"address1": "149 W 14th St", "address2": null, "address3": "", "city": "New York", "zip_code": "10011", "country": "US", "state": "NY", "display_address": ["149 W 14th St", "New York, NY 10011"]}, "phone": "+16464389007", "display_phone": "(646) 438-9007", "distance": 3690.5460277554907}, {"id": "0dDCDQz7DrKkSvu9h2hcQw", "alias": "chow-house-new-york", "name": "Chow House", "image_url": "https://s3-media3.fl.yelpcdn.com/bphoto/kzeClsI9_2tkHqKScotx1Q/o.jpg", "is_closed": false, "url": "https://www.yelp.com/biz/chow-house-new-york?adjust_creative=wFi7K9OZmvTenkmtw_H9Ww&utm_campaign=yelp_api_v3&utm_medium=api_v3_business_search&utm_source=wFi7K9OZmvTenkmtw_H9Ww", "review_count": 381, "categories": [{"alias": "chinese", "title": "Chinese"}, {"alias": "noodles", "title": "Noodles"}, {"alias": "soup", "title": "Soup"}], "rating": 4.5, "coordinates": {"latitude": 40.72915, "longitude": -74.00072}, "transactions": ["restaurant_reservation", "delivery", "pickup"], "price": "$$", "location": {"address1": "181 Bleecker St", "address2": null, "address3": "", "city": "New York", "zip_code": "10012", "country": "US", "state": "NY", "display_address": ["181 Bleecker St", "New York, NY 10012"]}, "phone": "+12128371021", "display_phone": "(212) 837-1021", "distance": 2692.4401801037266}, {"id": "XEugUtbw4rRmGr9S1XA-aQ", "alias": "alta-new-york", "name": "Alta", "image_url": "https://s3-media1.fl.yelpcdn.com/bphoto/aUWGUNBLw-mbQZOzJ9-Pdw/o.jpg", "is_closed": false, "url": "https://www.yelp.com/biz/alta-new-york?adjust_creative=wFi7K9OZmvTenkmtw_H9Ww&utm_campaign=yelp_api_v3&utm_medium=api_v3_business_search&utm_source=wFi7K9OZmvTenkmtw_H9Ww", "review_count": 1896, "categories": [{"alias": "tapas", "title": "Tapas Bars"}, {"alias": "mediterranean", "title": "Mediterranean"}, {"alias": "spanish", "title": "Spanish"}], "rating": 4.0, "coordinates": {"latitude": 40.7345163811398, "longitude": -73.9983369619683}, "transactions": ["restaurant_reservation"], "price": "$$$", "location": {"address1": "64 W 10th St", "address2": "", "address3": "", "city": "New York", "zip_code": "10011", "country": "US", "state": "NY", "display_address": ["64 W 10th St", "New York, NY 10011"]}, "phone": "+12125057777", "display_phone": "(212) 505-7777", "distance": 3250.5152771255803}, {"id": "sCC7-hSdCkNPExejZT9BAQ", "alias": "the-masalawala-new-york-2", "name": "The MasalaWala", "image_url": "https://s3-media4.fl.yelpcdn.com/bphoto/4fxSLoYtYtP-lDIRQZ-LJw/o.jpg", "is_closed": false, "url": "https://www.yelp.com/biz/the-masalawala-new-york-2?adjust_creative=wFi7K9OZmvTenkmtw_H9Ww&utm_campaign=yelp_api_v3&utm_medium=api_v3_business_search&utm_source=wFi7K9OZmvTenkmtw_H9Ww", "review_count": 1475, "categories": [{"alias": "indpak", "title": "Indian"}, {"alias": "pakistani", "title": "Pakistani"}], "rating": 4.5, "coordinates": {"latitude": 40.72191, "longitude": -73.98666}, "transactions": ["delivery", "pickup", "restaurant_reservation"], "price": "$$", "location": {"address1": "179 Essex St", "address2": "", "address3": "", "city": "New York", "zip_code": "10002", "country": "US", "state": "NY", "display_address": ["179 Essex St", "New York, NY 10002"]}, "phone": "+12123589300", "display_phone": "(212) 358-9300", "distance": 1941.6907576360677}, {"id": "OLSSJIp8pu5UlugTF7tuHA", "alias": "ootoya-chelsea-new-york", "name": "Ootoya Chelsea", "image_url": "https://s3-media2.fl.yelpcdn.com/bphoto/W8ZWQDEq3e9FjiRZwRNRNg/o.jpg", "is_closed": false, "url": "https://www.yelp.com/biz/ootoya-chelsea-new-york?adjust_creative=wFi7K9OZmvTenkmtw_H9Ww&utm_campaign=yelp_api_v3&utm_medium=api_v3_business_search&utm_source=wFi7K9OZmvTenkmtw_H9Ww", "review_count": 1394, "categories": [{"alias": "japanese", "title": "Japanese"}, {"alias": "sushi", "title": "Sushi Bars"}, {"alias": "hotpot", "title": "Hot Pot"}], "rating": 4.0, "coordinates": {"latitude": 40.738767, "longitude": -73.992778}, "transactions": ["restaurant_reservation", "pickup"], "price": "$$", "location": {"address1": "8 W 18th St", "address2": "", "address3": "", "city": "New York", "zip_code": "10011", "country": "US", "state": "NY", "display_address": ["8 W 18th St", "New York, NY 10011"]}, "phone": "+12122550018", "display_phone": "(212) 255-0018", "distance": 3707.4479106406193}, {"id": "Xf6e3HaP0AgMBxY7dEDkOA", "alias": "99-favor-taste-new-york-12", "name": "99 Favor Taste", "image_url": "https://s3-media3.fl.yelpcdn.com/bphoto/3WBk8VLxBAWeXOSqvYoXgw/o.jpg", "is_closed": false, "url": "https://www.yelp.com/biz/99-favor-taste-new-york-12?adjust_creative=wFi7K9OZmvTenkmtw_H9Ww&utm_campaign=yelp_api_v3&utm_medium=api_v3_business_search&utm_source=wFi7K9OZmvTenkmtw_H9Ww", "review_count": 1831, "categories": [{"alias": "chinese", "title": "Chinese"}, {"alias": "hotpot", "title": "Hot Pot"}, {"alias": "bbq", "title": "Barbeque"}], "rating": 4.0, "coordinates": {"latitude": 40.7176199, "longitude": -73.99249}, "transactions": ["restaurant_reservation"], "price": "$$", "location": {"address1": "285 Grand St", "address2": "", "address3": "", "city": "New York", "zip_code": "10002", "country": "US", "state": "NY", "display_address": ["285 Grand St", "New York, NY 10002"]}, "phone": "+16466829162", "display_phone": "(646) 682-9162", "distance": 1348.6324758108813}, {"id": "22nKUyCIbpnzR6R3_g1ptQ", "alias": "carmines-italian-restaurant-times-square-new-york-5", "name": "Carmine's Italian Restaurant - Times Square", "image_url": "https://s3-media1.fl.yelpcdn.com/bphoto/0UszeEYPWI-RIk0Ak6HtVQ/o.jpg", "is_closed": false, "url": "https://www.yelp.com/biz/carmines-italian-restaurant-times-square-new-york-5?adjust_creative=wFi7K9OZmvTenkmtw_H9Ww&utm_campaign=yelp_api_v3&utm_medium=api_v3_business_search&utm_source=wFi7K9OZmvTenkmtw_H9Ww", "review_count": 3756, "categories": [{"alias": "italian", "title": "Italian"}, {"alias": "catering", "title": "Caterers"}, {"alias": "venues", "title": "Venues & Event Spaces"}], "rating": 4.0, "coordinates": {"latitude": 40.7574955824307, "longitude": -73.9866844540098}, "transactions": ["delivery", "pickup"], "price": "$$", "location": {"address1": "200 W 44th St", "address2": "", "address3": "", "city": "New York", "zip_code": "10036", "country": "US", "state": "NY", "display_address": ["200 W 44th St", "New York, NY 10036"]}, "phone": "+12122213800", "display_phone": "(212) 221-3800", "distance": 5823.169973434953}, {"id": "Ms3CAGddVbgetiQrpzqxPQ", "alias": "hometown-bar-b-que-brooklyn-3", "name": "Hometown Bar-B-Que", "image_url": "https://s3-media2.fl.yelpcdn.com/bphoto/Eo9NJvaF8j9HLa0GX9yNUA/o.jpg", "is_closed": false, "url": "https://www.yelp.com/biz/hometown-bar-b-que-brooklyn-3?adjust_creative=wFi7K9OZmvTenkmtw_H9Ww&utm_campaign=yelp_api_v3&utm_medium=api_v3_business_search&utm_source=wFi7K9OZmvTenkmtw_H9Ww", "review_count": 1335, "categories": [{"alias": "bbq", "title": "Barbeque"}, {"alias": "smokehouse", "title": "Smokehouse"}], "rating": 4.0, "coordinates": {"latitude": 40.6748965703426, "longitude": -74.0160489746129}, "transactions": [], "price": "$$", "location": {"address1": "454 Van Brunt St", "address2": "", "address3": null, "city": "Brooklyn", "zip_code": "11231", "country": "US", "state": "NY", "display_address": ["454 Van Brunt St", "Brooklyn, NY 11231"]}, "phone": "+13472944644", "display_phone": "(347) 294-4644", "distance": 3860.4357473559635}, {"id": "4yPqqJDJOQX69gC66YUDkA", "alias": "peter-luger-brooklyn-2", "name": "Peter Luger", "image_url": "https://s3-media4.fl.yelpcdn.com/bphoto/KRpKd1ZdcYSPRDhlb12Vjw/o.jpg", "is_closed": false, "url": "https://www.yelp.com/biz/peter-luger-brooklyn-2?adjust_creative=wFi7K9OZmvTenkmtw_H9Ww&utm_campaign=yelp_api_v3&utm_medium=api_v3_business_search&utm_source=wFi7K9OZmvTenkmtw_H9Ww", "review_count": 5697, "categories": [{"alias": "steak", "title": "Steakhouses"}], "rating": 4.0, "coordinates": {"latitude": 40.709945, "longitude": -73.962478}, "transactions": [], "price": "$$$$", "location": {"address1": "178 Broadway", "address2": "", "address3": "", "city": "Brooklyn", "zip_code": "11211", "country": "US", "state": "NY", "display_address": ["178 Broadway", "Brooklyn, NY 11211"]}, "phone": "+17183877400", "display_phone": "(718) 387-7400", "distance": 2728.016921522817}, {"id": "Wx6lMnEh7dCmX-9PQF1Ifw", "alias": "toloache-50-new-york", "name": "Toloache 50", "image_url": "https://s3-media4.fl.yelpcdn.com/bphoto/m5yGUnpSxMB0KaxgwwXMQA/o.jpg", "is_closed": false, "url": "https://www.yelp.com/biz/toloache-50-new-york?adjust_creative=wFi7K9OZmvTenkmtw_H9Ww&utm_campaign=yelp_api_v3&utm_medium=api_v3_business_search&utm_source=wFi7K9OZmvTenkmtw_H9Ww", "review_count": 1958, "categories": [{"alias": "mexican", "title": "Mexican"}], "rating": 4.0, "coordinates": {"latitude": 40.762325, "longitude": -73.9855741}, "transactions": ["restaurant_reservation", "delivery", "pickup"], "price": "$$", "location": {"address1": "251 West 50th St", "address2": "", "address3": "", "city": "New York", "zip_code": "10012", "country": "US", "state": "NY", "display_address": ["251 West 50th St", "New York, NY 10012"]}, "phone": "+12125811818", "display_phone": "(212) 581-1818", "distance": 6367.299188770475}, {"id": "LpVbI-E9C-CSp7WhU5h2Iw", "alias": "fishmarket-restaurant-new-york", "name": "Fishmarket Restaurant", "image_url": "https://s3-media1.fl.yelpcdn.com/bphoto/BxY50B6ntFYQa8COuI1Fog/o.jpg", "is_closed": false, "url": "https://www.yelp.com/biz/fishmarket-restaurant-new-york?adjust_creative=wFi7K9OZmvTenkmtw_H9Ww&utm_campaign=yelp_api_v3&utm_medium=api_v3_business_search&utm_source=wFi7K9OZmvTenkmtw_H9Ww", "review_count": 545, "categories": [{"alias": "seafood", "title": "Seafood"}, {"alias": "chinese", "title": "Chinese"}, {"alias": "asianfusion", "title": "Asian Fusion"}], "rating": 4.5, "coordinates": {"latitude": 40.70717, "longitude": -74.00192}, "transactions": [], "price": "$$", "location": {"address1": "111 South St", "address2": "", "address3": "", "city": "New York", "zip_code": "10038", "country": "US", "state": "NY", "display_address": ["111 South St", "New York, NY 10038"]}, "phone": "+19173638101", "display_phone": "(917) 363-8101", "distance": 671.0784555500173}, {"id": "3gqKLANaXNsHZnPDjKrcTg", "alias": "win-son-brooklyn-4", "name": "Win Son", "image_url": "https://s3-media4.fl.yelpcdn.com/bphoto/EXCnl7qaa1wEQMWMI6ZqRQ/o.jpg", "is_closed": false, "url": "https://www.yelp.com/biz/win-son-brooklyn-4?adjust_creative=wFi7K9OZmvTenkmtw_H9Ww&utm_campaign=yelp_api_v3&utm_medium=api_v3_business_search&utm_source=wFi7K9OZmvTenkmtw_H9Ww", "review_count": 476, "categories": [{"alias": "taiwanese", "title": "Taiwanese"}, {"alias": "newamerican", "title": "American (New)"}, {"alias": "asianfusion", "title": "Asian Fusion"}], "rating": 4.0, "coordinates": {"latitude": 40.70747, "longitude": -73.94339}, "transactions": [], "price": "$$", "location": {"address1": "159 Graham Ave", "address2": null, "address3": "", "city": "Brooklyn", "zip_code": "11206", "country": "US", "state": "NY", "display_address": ["159 Graham Ave", "Brooklyn, NY 11206"]}, "phone": "+13474576010", "display_phone": "(347) 457-6010", "distance": 4288.123697814991}, {"id": "RfxOtJ4SQmEeVX_XjFLWUQ", "alias": "otis-brooklyn-2", "name": "Otis", "image_url": "https://s3-media1.fl.yelpcdn.com/bphoto/2-wCZkm7v_aIvHuzuTsnhA/o.jpg", "is_closed": false, "url": "https://www.yelp.com/biz/otis-brooklyn-2?adjust_creative=wFi7K9OZmvTenkmtw_H9Ww&utm_campaign=yelp_api_v3&utm_medium=api_v3_business_search&utm_source=wFi7K9OZmvTenkmtw_H9Ww", "review_count": 292, "categories": [{"alias": "newamerican", "title": "American (New)"}, {"alias": "cocktailbars", "title": "Cocktail Bars"}], "rating": 5.0, "coordinates": {"latitude": 40.706011, "longitude": -73.932598}, "transactions": [], "price": "$$", "location": {"address1": "18 Harrison Pl", "address2": null, "address3": "", "city": "Brooklyn", "zip_code": "11206", "country": "US", "state": "NY", "display_address": ["18 Harrison Pl", "Brooklyn, NY 11206"]}, "phone": "+16468860601", "display_phone": "(646) 886-0601", "distance": 5200.877004016517}, {"id": "tM8ZtEix8Bxg82AIKsHXcw", "alias": "zizi-new-york-3", "name": "Zizi", "image_url": "https://s3-media2.fl.yelpcdn.com/bphoto/zDPS4931jl9HPNL4A8tIYw/o.jpg", "is_closed": false, "url": "https://www.yelp.com/biz/zizi-new-york-3?adjust_creative=wFi7K9OZmvTenkmtw_H9Ww&utm_campaign=yelp_api_v3&utm_medium=api_v3_business_search&utm_source=wFi7K9OZmvTenkmtw_H9Ww", "review_count": 55, "categories": [{"alias": "mediterranean", "title": "Mediterranean"}, {"alias": "mideastern", "title": "Middle Eastern"}], "rating": 4.5, "coordinates": {"latitude": 40.74293, "longitude": -74.00002}, "transactions": ["restaurant_reservation", "delivery", "pickup"], "location": {"address1": "182 8th Ave", "address2": null, "address3": "", "city": "New York", "zip_code": "10011", "country": "US", "state": "NY", "display_address": ["182 8th Ave", "New York, NY 10011"]}, "phone": "+16464549710", "display_phone": "(646) 454-9710", "distance": 4192.8072241891505}], "total": 19000, "region": {"center": {"longitude": -73.99429321289062, "latitude": 40.70544486444615}}}